{
  "type": "FeatureCollection",
  "features": [
    {
      "type": "Feature",
      "geometry": {
        "type": "Point",
        "coordinates": [
          11.8303,
          51.4161
        ]
      },
      "properties": {
        "name": "Bad Lauchst\u00e4dt wind farm",
        "capacity": "50.0",
        "installation_type": "Onshore",
        "status": "Operating",
        "start_year": "2024.0",
        "last_researched": "2025/01/06"
      }
    },
    {
      "type": "Feature",
      "geometry": {
        "type": "Point",
        "coordinates": [
          6.0244,
          50.8086
        ]
      },
      "properties": {
        "name": "Aachen wind farm",
        "capacity": "15.0",
        "installation_type": "Onshore",
        "status": "Operating",
        "start_year": "1997.0",
        "last_researched": "2022/04/05"
      }
    },
    {
      "type": "Feature",
      "geometry": {
        "type": "Point",
        "coordinates": [
          7.7569,
          53.6118
        ]
      },
      "properties": {
        "name": "Abens-Nord wind farm",
        "capacity": "12.0",
        "installation_type": "Onshore",
        "status": "Operating",
        "start_year": "2005.0",
        "last_researched": "2023/04/05"
      }
    },
    {
      "type": "Feature",
      "geometry": {
        "type": "Point",
        "coordinates": [
          7.75,
          53.6189
        ]
      },
      "properties": {
        "name": "Abens-Nord wind farm",
        "capacity": "48.0",
        "installation_type": "Onshore",
        "status": "Operating",
        "start_year": "2015.0",
        "last_researched": "2022/04/05"
      }
    },
    {
      "type": "Feature",
      "geometry": {
        "type": "Point",
        "coordinates": [
          12.9269,
          51.2269
        ]
      },
      "properties": {
        "name": "Abla\u00df wind farm",
        "capacity": "18.0",
        "installation_type": "Onshore",
        "status": "Operating",
        "start_year": "1999.0",
        "last_researched": "2022/04/05"
      }
    },
    {
      "type": "Feature",
      "geometry": {
        "type": "Point",
        "coordinates": [
          8.4238,
          52.3878
        ]
      },
      "properties": {
        "name": "Achmer Vinte Renditefonds wind farm",
        "capacity": "21.0",
        "installation_type": "Onshore",
        "status": "Operating",
        "start_year": "2005.0",
        "last_researched": "2022/04/05"
      }
    },
    {
      "type": "Feature",
      "geometry": {
        "type": "Point",
        "coordinates": [
          7.0676,
          49.632
        ]
      },
      "properties": {
        "name": "Achtelsbach wind farm",
        "capacity": "12.0",
        "installation_type": "Onshore",
        "status": "Operating",
        "start_year": "2014.0",
        "last_researched": "2022/04/05"
      }
    },
    {
      "type": "Feature",
      "geometry": {
        "type": "Point",
        "coordinates": [
          11.4568,
          52.2119
        ]
      },
      "properties": {
        "name": "Ackendorf-Gutenswegen wind farm",
        "capacity": "12.0",
        "installation_type": "Onshore",
        "status": "Operating",
        "start_year": "nan",
        "last_researched": "2022/04/05"
      }
    },
    {
      "type": "Feature",
      "geometry": {
        "type": "Point",
        "coordinates": [
          9.1139,
          54.3135
        ]
      },
      "properties": {
        "name": "Adlerhorst wind farm",
        "capacity": "13.0",
        "installation_type": "Onshore",
        "status": "Operating",
        "start_year": "2003.0",
        "last_researched": "2022/04/05"
      }
    },
    {
      "type": "Feature",
      "geometry": {
        "type": "Point",
        "coordinates": [
          8.8439,
          51.3706
        ]
      },
      "properties": {
        "name": "Adorf wind farm",
        "capacity": "18.0",
        "installation_type": "Onshore",
        "status": "Operating",
        "start_year": "2006.0",
        "last_researched": "2022/04/05"
      }
    },
    {
      "type": "Feature",
      "geometry": {
        "type": "Point",
        "coordinates": [
          6.9888,
          52.029
        ]
      },
      "properties": {
        "name": "Ahaus Quantwick wind farm",
        "capacity": "25.0",
        "installation_type": "Onshore",
        "status": "Operating",
        "start_year": "2017.0",
        "last_researched": "2022/04/05"
      }
    },
    {
      "type": "Feature",
      "geometry": {
        "type": "Point",
        "coordinates": [
          7.8822,
          51.7965
        ]
      },
      "properties": {
        "name": "Ahlen wind farm",
        "capacity": "37.0",
        "installation_type": "Onshore",
        "status": "Operating",
        "start_year": "2011.0",
        "last_researched": "2022/04/05"
      }
    },
    {
      "type": "Feature",
      "geometry": {
        "type": "Point",
        "coordinates": [
          9.3836,
          53.387
        ]
      },
      "properties": {
        "name": "Ahlerstedt wind farm",
        "capacity": "22.0",
        "installation_type": "Onshore",
        "status": "Operating",
        "start_year": "2017.0",
        "last_researched": "2022/04/05"
      }
    },
    {
      "type": "Feature",
      "geometry": {
        "type": "Point",
        "coordinates": [
          9.5747,
          49.5466
        ]
      },
      "properties": {
        "name": "Ahorn-Buch wind farm",
        "capacity": "11.0",
        "installation_type": "Onshore",
        "status": "Operating",
        "start_year": "2017.0",
        "last_researched": "2022/04/05"
      }
    },
    {
      "type": "Feature",
      "geometry": {
        "type": "Point",
        "coordinates": [
          9.5687,
          49.4832
        ]
      },
      "properties": {
        "name": "Ahorn-Schillingstadt wind farm",
        "capacity": "11.0",
        "installation_type": "Onshore",
        "status": "Operating",
        "start_year": "2017.0",
        "last_researched": "2022/04/05"
      }
    },
    {
      "type": "Feature",
      "geometry": {
        "type": "Point",
        "coordinates": [
          8.0264,
          52.4119
        ]
      },
      "properties": {
        "name": "Ahrensfeld wind farm",
        "capacity": "17.0",
        "installation_type": "Onshore",
        "status": "Operating",
        "start_year": "2017.0",
        "last_researched": "2022/04/05"
      }
    },
    {
      "type": "Feature",
      "geometry": {
        "type": "Point",
        "coordinates": [
          9.1935,
          54.5238
        ]
      },
      "properties": {
        "name": "Ahrenvi\u00f6l wind farm",
        "capacity": "15.0",
        "installation_type": "Onshore",
        "status": "Operating",
        "start_year": "2002.0",
        "last_researched": "2023/03/21"
      }
    },
    {
      "type": "Feature",
      "geometry": {
        "type": "Point",
        "coordinates": [
          9.2561,
          54.5293
        ]
      },
      "properties": {
        "name": "Ahrenvi\u00f6l wind farm",
        "capacity": "10.0",
        "installation_type": "Onshore",
        "status": "Operating",
        "start_year": "2013.0",
        "last_researched": "2023/03/21"
      }
    },
    {
      "type": "Feature",
      "geometry": {
        "type": "Point",
        "coordinates": [
          9.2756,
          54.5335
        ]
      },
      "properties": {
        "name": "Ahrenvi\u00f6lfeld wind farm",
        "capacity": "15.0",
        "installation_type": "Onshore",
        "status": "Operating",
        "start_year": "2002.0",
        "last_researched": "2022/04/05"
      }
    },
    {
      "type": "Feature",
      "geometry": {
        "type": "Point",
        "coordinates": [
          6.2832,
          54.4868
        ]
      },
      "properties": {
        "name": "Albatros wind farm",
        "capacity": "112.0",
        "installation_type": "Offshore hard mount",
        "status": "Operating",
        "start_year": "2020.0",
        "last_researched": "2024/03/04"
      }
    },
    {
      "type": "Feature",
      "geometry": {
        "type": "Point",
        "coordinates": [
          9.2541,
          54.1386
        ]
      },
      "properties": {
        "name": "Albersdorf wind farm",
        "capacity": "17.0",
        "installation_type": "Onshore",
        "status": "Operating",
        "start_year": "2014.0",
        "last_researched": "2022/04/05"
      }
    },
    {
      "type": "Feature",
      "geometry": {
        "type": "Point",
        "coordinates": [
          13.6673,
          52.6856
        ]
      },
      "properties": {
        "name": "Albertshof wind farm",
        "capacity": "31.0",
        "installation_type": "Onshore",
        "status": "Operating",
        "start_year": "2021.0",
        "last_researched": "2024/03/04"
      }
    },
    {
      "type": "Feature",
      "geometry": {
        "type": "Point",
        "coordinates": [
          8.7922,
          52.8026
        ]
      },
      "properties": {
        "name": "Albringhausen wind farm",
        "capacity": "37.0",
        "installation_type": "Onshore",
        "status": "Operating",
        "start_year": "2021.0",
        "last_researched": "2022/04/05"
      }
    },
    {
      "type": "Feature",
      "geometry": {
        "type": "Point",
        "coordinates": [
          8.7959,
          52.7886
        ]
      },
      "properties": {
        "name": "Albringhausen wind farm",
        "capacity": "55.0",
        "installation_type": "Onshore",
        "status": "Operating",
        "start_year": "2023.0",
        "last_researched": "2024/03/26"
      }
    },
    {
      "type": "Feature",
      "geometry": {
        "type": "Point",
        "coordinates": [
          6.2767,
          50.9133
        ]
      },
      "properties": {
        "name": "Aldenhoven Nord wind farm",
        "capacity": "15.0",
        "installation_type": "Onshore",
        "status": "Operating",
        "start_year": "2016.0",
        "last_researched": "2022/04/05"
      }
    },
    {
      "type": "Feature",
      "geometry": {
        "type": "Point",
        "coordinates": [
          9.0293,
          53.5464
        ]
      },
      "properties": {
        "name": "Alfstedt wind farm",
        "capacity": "42.0",
        "installation_type": "Onshore",
        "status": "Operating",
        "start_year": "2022.0",
        "last_researched": "2024/03/18"
      }
    },
    {
      "type": "Feature",
      "geometry": {
        "type": "Point",
        "coordinates": [
          9.5279,
          52.6915
        ]
      },
      "properties": {
        "name": "Aller-Leine-Tal wind farm",
        "capacity": "16.0",
        "installation_type": "Onshore",
        "status": "Operating",
        "start_year": "2012.0",
        "last_researched": "2022/04/05"
      }
    },
    {
      "type": "Feature",
      "geometry": {
        "type": "Point",
        "coordinates": [
          7.9521,
          52.5007
        ]
      },
      "properties": {
        "name": "Alpenrod wind farm",
        "capacity": "10.0",
        "installation_type": "Onshore",
        "status": "Operating",
        "start_year": "2010.0",
        "last_researched": "2022/04/05"
      }
    },
    {
      "type": "Feature",
      "geometry": {
        "type": "Point",
        "coordinates": [
          6.6,
          54.0167
        ]
      },
      "properties": {
        "name": "Alpha Ventus wind farm",
        "capacity": "30.0",
        "installation_type": "Offshore hard mount",
        "status": "Operating",
        "start_year": "2009.0",
        "last_researched": "2022/04/05"
      }
    },
    {
      "type": "Feature",
      "geometry": {
        "type": "Point",
        "coordinates": [
          6.6,
          54.0167
        ]
      },
      "properties": {
        "name": "Alpha Ventus wind farm",
        "capacity": "30.0",
        "installation_type": "Offshore hard mount",
        "status": "Operating",
        "start_year": "2010.0",
        "last_researched": "2022/04/05"
      }
    },
    {
      "type": "Feature",
      "geometry": {
        "type": "Point",
        "coordinates": [
          11.6784,
          51.7015
        ]
      },
      "properties": {
        "name": "Alsleben wind farm",
        "capacity": "56.0",
        "installation_type": "Onshore",
        "status": "Operating",
        "start_year": "2005.0",
        "last_researched": "2022/04/05"
      }
    },
    {
      "type": "Feature",
      "geometry": {
        "type": "Point",
        "coordinates": [
          11.3195,
          53.5164
        ]
      },
      "properties": {
        "name": "Alt Zachun wind farm",
        "capacity": "26.0",
        "installation_type": "Onshore",
        "status": "Operating",
        "start_year": "2021.0",
        "last_researched": "2023/02/28"
      }
    },
    {
      "type": "Feature",
      "geometry": {
        "type": "Point",
        "coordinates": [
          9.4538,
          54.3841
        ]
      },
      "properties": {
        "name": "Alt-Bennebek wind farm",
        "capacity": "24.0",
        "installation_type": "Onshore",
        "status": "Operating",
        "start_year": "2015.0",
        "last_researched": "2022/04/05"
      }
    },
    {
      "type": "Feature",
      "geometry": {
        "type": "Point",
        "coordinates": [
          9.1358,
          50.5575
        ]
      },
      "properties": {
        "name": "Alte H\u00f6he wind farm",
        "capacity": "10.0",
        "installation_type": "Onshore",
        "status": "Operating",
        "start_year": "2000.0",
        "last_researched": "2022/04/05"
      }
    },
    {
      "type": "Feature",
      "geometry": {
        "type": "Point",
        "coordinates": [
          11.9227,
          52.7109
        ]
      },
      "properties": {
        "name": "Altenau wind farm",
        "capacity": "21.0",
        "installation_type": "Onshore",
        "status": "Operating",
        "start_year": "2022.0",
        "last_researched": "2024/03/18"
      }
    },
    {
      "type": "Feature",
      "geometry": {
        "type": "Point",
        "coordinates": [
          8.773,
          53.825
        ]
      },
      "properties": {
        "name": "Altenbruch wind farm",
        "capacity": "26.0",
        "installation_type": "Onshore",
        "status": "Operating",
        "start_year": "2009.0",
        "last_researched": "2023/04/06"
      }
    },
    {
      "type": "Feature",
      "geometry": {
        "type": "Point",
        "coordinates": [
          8.773,
          53.825
        ]
      },
      "properties": {
        "name": "Altenbruch wind farm",
        "capacity": "27.0",
        "installation_type": "Onshore",
        "status": "Operating",
        "start_year": "2016.0",
        "last_researched": "2022/04/05"
      }
    },
    {
      "type": "Feature",
      "geometry": {
        "type": "Point",
        "coordinates": [
          10.6314,
          53.1599
        ]
      },
      "properties": {
        "name": "Altenmedingen wind farm",
        "capacity": "18.0",
        "installation_type": "Onshore",
        "status": "Operating",
        "start_year": "2021.0",
        "last_researched": "2023/04/04"
      }
    },
    {
      "type": "Feature",
      "geometry": {
        "type": "Point",
        "coordinates": [
          7.5092,
          52.3098
        ]
      },
      "properties": {
        "name": "Altenrheine wind farm",
        "capacity": "16.0",
        "installation_type": "Onshore",
        "status": "Operating",
        "start_year": "2017.0",
        "last_researched": "2022/04/05"
      }
    },
    {
      "type": "Feature",
      "geometry": {
        "type": "Point",
        "coordinates": [
          13.2093,
          53.6968
        ]
      },
      "properties": {
        "name": "Altentreptow West wind farm",
        "capacity": "10.0",
        "installation_type": "Onshore",
        "status": "Operating",
        "start_year": "2015.0",
        "last_researched": "2022/04/05"
      }
    },
    {
      "type": "Feature",
      "geometry": {
        "type": "Point",
        "coordinates": [
          12.3038,
          53.9311
        ]
      },
      "properties": {
        "name": "Altentreptow wind farm",
        "capacity": "10.0",
        "installation_type": "Onshore",
        "status": "Operating",
        "start_year": "2003.0",
        "last_researched": "2022/04/05"
      }
    },
    {
      "type": "Feature",
      "geometry": {
        "type": "Point",
        "coordinates": [
          7.4788,
          50.0457
        ]
      },
      "properties": {
        "name": "Alterkulz-Spesenroth wind farm",
        "capacity": "14.0",
        "installation_type": "Onshore",
        "status": "Operating",
        "start_year": "2008.0",
        "last_researched": "2022/04/05"
      }
    },
    {
      "type": "Feature",
      "geometry": {
        "type": "Point",
        "coordinates": [
          12.9708,
          52.0342
        ]
      },
      "properties": {
        "name": "Altes Lager wind farm",
        "capacity": "32.0",
        "installation_type": "Onshore",
        "status": "Operating",
        "start_year": "2009.0",
        "last_researched": "2022/04/05"
      }
    },
    {
      "type": "Feature",
      "geometry": {
        "type": "Point",
        "coordinates": [
          13.7847,
          52.6058
        ]
      },
      "properties": {
        "name": "Altlandsberg wind farm",
        "capacity": "14.0",
        "installation_type": "Onshore",
        "status": "Operating",
        "start_year": "2003.0",
        "last_researched": "2022/04/05"
      }
    },
    {
      "type": "Feature",
      "geometry": {
        "type": "Point",
        "coordinates": [
          11.4497,
          52.7336
        ]
      },
      "properties": {
        "name": "Altmark Dk wind farm",
        "capacity": "12.0",
        "installation_type": "Onshore",
        "status": "Operating",
        "start_year": "2006.0",
        "last_researched": "2022/04/05"
      }
    },
    {
      "type": "Feature",
      "geometry": {
        "type": "Point",
        "coordinates": [
          11.4387,
          52.7284
        ]
      },
      "properties": {
        "name": "Altmark wind farm",
        "capacity": "32.0",
        "installation_type": "Onshore",
        "status": "Operating",
        "start_year": "2006.0",
        "last_researched": "2022/04/05"
      }
    },
    {
      "type": "Feature",
      "geometry": {
        "type": "Point",
        "coordinates": [
          8.0644,
          49.765
        ]
      },
      "properties": {
        "name": "Alzey-Heimersheim wind farm",
        "capacity": "14.0",
        "installation_type": "Onshore",
        "status": "Operating",
        "start_year": "2012.0",
        "last_researched": "2023/04/06"
      }
    },
    {
      "type": "Feature",
      "geometry": {
        "type": "Point",
        "coordinates": [
          7.0182,
          49.837
        ]
      },
      "properties": {
        "name": "Am Ranzenkopf wind farm",
        "capacity": "30.0",
        "installation_type": "Onshore",
        "status": "Operating",
        "start_year": "2018.0",
        "last_researched": "2022/04/05"
      }
    },
    {
      "type": "Feature",
      "geometry": {
        "type": "Point",
        "coordinates": [
          12.4808,
          53.8311
        ]
      },
      "properties": {
        "name": "Amalienhof wind farm",
        "capacity": "17.0",
        "installation_type": "Onshore",
        "status": "Operating",
        "start_year": "2002.0",
        "last_researched": "2022/04/05"
      }
    },
    {
      "type": "Feature",
      "geometry": {
        "type": "Point",
        "coordinates": [
          11.6028,
          51.7642
        ]
      },
      "properties": {
        "name": "Amesdorf wind farm",
        "capacity": "11.0",
        "installation_type": "Onshore",
        "status": "Operating",
        "start_year": "2002.0",
        "last_researched": "2022/04/05"
      }
    },
    {
      "type": "Feature",
      "geometry": {
        "type": "Point",
        "coordinates": [
          8.9048,
          50.7382
        ]
      },
      "properties": {
        "name": "Am\u00f6neburg-Ro\u00dfkopf wind farm",
        "capacity": "13.0",
        "installation_type": "Onshore",
        "status": "Operating",
        "start_year": "2016.0",
        "last_researched": "2022/04/05"
      }
    },
    {
      "type": "Feature",
      "geometry": {
        "type": "Point",
        "coordinates": [
          7.708,
          54.52
        ]
      },
      "properties": {
        "name": "Amrumbank West wind farm",
        "capacity": "302.0",
        "installation_type": "Offshore hard mount",
        "status": "Operating",
        "start_year": "2015.0",
        "last_researched": "2022/04/05"
      }
    },
    {
      "type": "Feature",
      "geometry": {
        "type": "Point",
        "coordinates": [
          8.6766,
          47.9594
        ]
      },
      "properties": {
        "name": "Amtenhauser Berg wind farm",
        "capacity": "17.0",
        "installation_type": "Onshore",
        "status": "Operating",
        "start_year": "2017.0",
        "last_researched": "2022/04/05"
      }
    },
    {
      "type": "Feature",
      "geometry": {
        "type": "Point",
        "coordinates": [
          9.0263,
          52.5675
        ]
      },
      "properties": {
        "name": "Anemolter-Steyerberg wind farm",
        "capacity": "26.0",
        "installation_type": "Onshore",
        "status": "Operating",
        "start_year": "2003.0",
        "last_researched": "2022/04/05"
      }
    },
    {
      "type": "Feature",
      "geometry": {
        "type": "Point",
        "coordinates": [
          9.5807,
          49.4773
        ]
      },
      "properties": {
        "name": "Angelt\u00fcrn wind farm",
        "capacity": "12.0",
        "installation_type": "Onshore",
        "status": "Operating",
        "start_year": "2016.0",
        "last_researched": "2022/04/05"
      }
    },
    {
      "type": "Feature",
      "geometry": {
        "type": "Point",
        "coordinates": [
          10.6373,
          49.2446
        ]
      },
      "properties": {
        "name": "Ansbach Lichtenau wind farm",
        "capacity": "10.0",
        "installation_type": "Onshore",
        "status": "Operating",
        "start_year": "2017.0",
        "last_researched": "2023/03/14"
      }
    },
    {
      "type": "Feature",
      "geometry": {
        "type": "Point",
        "coordinates": [
          7.2729,
          51.7356
        ]
      },
      "properties": {
        "name": "Antrup wind farm",
        "capacity": "11.0",
        "installation_type": "Onshore",
        "status": "Operating",
        "start_year": "2023.0",
        "last_researched": "2024/02/29"
      }
    },
    {
      "type": "Feature",
      "geometry": {
        "type": "Point",
        "coordinates": [
          8.0268,
          53.5812
        ]
      },
      "properties": {
        "name": "Anzetel Wehlens wind farm",
        "capacity": "12.0",
        "installation_type": "Onshore",
        "status": "Operating",
        "start_year": "2014.0",
        "last_researched": "2022/04/05"
      }
    },
    {
      "type": "Feature",
      "geometry": {
        "type": "Point",
        "coordinates": [
          9.5942,
          53.4563
        ]
      },
      "properties": {
        "name": "Apensen wind farm",
        "capacity": "35.0",
        "installation_type": "Onshore",
        "status": "Operating",
        "start_year": "2001.0",
        "last_researched": "2022/04/05"
      }
    },
    {
      "type": "Feature",
      "geometry": {
        "type": "Point",
        "coordinates": [
          8.921,
          53.4565
        ]
      },
      "properties": {
        "name": "Appeln wind farm",
        "capacity": "11.0",
        "installation_type": "Onshore",
        "status": "Operating",
        "start_year": "2015.0",
        "last_researched": "2022/04/05"
      }
    },
    {
      "type": "Feature",
      "geometry": {
        "type": "Point",
        "coordinates": [
          13.6335,
          54.8202
        ]
      },
      "properties": {
        "name": "Arcadis Ost wind farm",
        "capacity": "257.0",
        "installation_type": "Offshore hard mount",
        "status": "Operating",
        "start_year": "2023.0",
        "last_researched": "2024/02/29"
      }
    },
    {
      "type": "Feature",
      "geometry": {
        "type": "Point",
        "coordinates": [
          8.4364,
          51.0404
        ]
      },
      "properties": {
        "name": "Arfeld wind farm",
        "capacity": "14.0",
        "installation_type": "Onshore",
        "status": "Operating",
        "start_year": "2022.0",
        "last_researched": "2024/03/18"
      }
    },
    {
      "type": "Feature",
      "geometry": {
        "type": "Point",
        "coordinates": [
          14.12,
          54.78
        ]
      },
      "properties": {
        "name": "Arkona Becken Su\u0308Dost wind farm",
        "capacity": "384.0",
        "installation_type": "Offshore hard mount",
        "status": "Operating",
        "start_year": "2019.0",
        "last_researched": "2022/04/05"
      }
    },
    {
      "type": "Feature",
      "geometry": {
        "type": "Point",
        "coordinates": [
          12.0035,
          52.6745
        ]
      },
      "properties": {
        "name": "Arneburg wind farm",
        "capacity": "32.0",
        "installation_type": "Onshore",
        "status": "Operating",
        "start_year": "2001.0",
        "last_researched": "2022/04/05"
      }
    },
    {
      "type": "Feature",
      "geometry": {
        "type": "Point",
        "coordinates": [
          12.0035,
          52.6745
        ]
      },
      "properties": {
        "name": "Arneburg wind farm",
        "capacity": "86.0",
        "installation_type": "Onshore",
        "status": "Operating",
        "start_year": "2001.0",
        "last_researched": "2022/04/05"
      }
    },
    {
      "type": "Feature",
      "geometry": {
        "type": "Point",
        "coordinates": [
          11.2935,
          51.3628
        ]
      },
      "properties": {
        "name": "Artern wind farm",
        "capacity": "12.0",
        "installation_type": "Onshore",
        "status": "Operating",
        "start_year": "2002.0",
        "last_researched": "2022/04/05"
      }
    },
    {
      "type": "Feature",
      "geometry": {
        "type": "Point",
        "coordinates": [
          6.1985,
          50.1707
        ]
      },
      "properties": {
        "name": "Arzfeld wind farm",
        "capacity": "11.0",
        "installation_type": "Onshore",
        "status": "Operating",
        "start_year": "2018.0",
        "last_researched": "2022/04/05"
      }
    },
    {
      "type": "Feature",
      "geometry": {
        "type": "Point",
        "coordinates": [
          6.3243,
          50.1259
        ]
      },
      "properties": {
        "name": "Arzfeld-Ost (ABO) wind farm",
        "capacity": "22.0",
        "installation_type": "Onshore",
        "status": "Operating",
        "start_year": "2019.0",
        "last_researched": "2022/04/05"
      }
    },
    {
      "type": "Feature",
      "geometry": {
        "type": "Point",
        "coordinates": [
          6.3156,
          50.1273
        ]
      },
      "properties": {
        "name": "Arzfeld-Ost (Blue Pearl) wind farm",
        "capacity": "22.0",
        "installation_type": "Onshore",
        "status": "Operating",
        "start_year": "2019.0",
        "last_researched": "2022/04/05"
      }
    },
    {
      "type": "Feature",
      "geometry": {
        "type": "Point",
        "coordinates": [
          11.4914,
          51.8031
        ]
      },
      "properties": {
        "name": "Aschersleben wind farm",
        "capacity": "20.0",
        "installation_type": "Onshore",
        "status": "Operating",
        "start_year": "2009.0",
        "last_researched": "2022/04/05"
      }
    },
    {
      "type": "Feature",
      "geometry": {
        "type": "Point",
        "coordinates": [
          11.4912,
          51.8019
        ]
      },
      "properties": {
        "name": "Aschersleben-Nauen wind farm",
        "capacity": "14.0",
        "installation_type": "Onshore",
        "status": "Operating",
        "start_year": "2003.0",
        "last_researched": "2022/04/05"
      }
    },
    {
      "type": "Feature",
      "geometry": {
        "type": "Point",
        "coordinates": [
          11.7118,
          51.4316
        ]
      },
      "properties": {
        "name": "Asendorfer Kippe wind farm",
        "capacity": "20.0",
        "installation_type": "Onshore",
        "status": "Operating",
        "start_year": "2007.0",
        "last_researched": "2022/04/05"
      }
    },
    {
      "type": "Feature",
      "geometry": {
        "type": "Point",
        "coordinates": [
          8.9222,
          51.6346
        ]
      },
      "properties": {
        "name": "Asselner wind farm",
        "capacity": "27.0",
        "installation_type": "Onshore",
        "status": "Operating",
        "start_year": "2015.0",
        "last_researched": "2022/04/05"
      }
    },
    {
      "type": "Feature",
      "geometry": {
        "type": "Point",
        "coordinates": [
          8.4654,
          50.636
        ]
      },
      "properties": {
        "name": "A\u00dflar wind farm",
        "capacity": "17.0",
        "installation_type": "Onshore",
        "status": "Operating",
        "start_year": "2017.0",
        "last_researched": "2022/04/05"
      }
    },
    {
      "type": "Feature",
      "geometry": {
        "type": "Point",
        "coordinates": [
          7.3606,
          49.2859
        ]
      },
      "properties": {
        "name": "Auf der wei\u00dfen Trisch wind farm",
        "capacity": "10.0",
        "installation_type": "Onshore",
        "status": "Operating",
        "start_year": "2017.0",
        "last_researched": "2023/03/17"
      }
    },
    {
      "type": "Feature",
      "geometry": {
        "type": "Point",
        "coordinates": [
          9.8153,
          54.1024
        ]
      },
      "properties": {
        "name": "Aukrug wind farm",
        "capacity": "17.0",
        "installation_type": "Onshore",
        "status": "Operating",
        "start_year": "2021.0",
        "last_researched": "2023/02/28"
      }
    },
    {
      "type": "Feature",
      "geometry": {
        "type": "Point",
        "coordinates": [
          14.2919,
          51.6494
        ]
      },
      "properties": {
        "name": "Auras wind farm",
        "capacity": "22.0",
        "installation_type": "Onshore",
        "status": "Operating",
        "start_year": "2022.0",
        "last_researched": "2023/04/18"
      }
    },
    {
      "type": "Feature",
      "geometry": {
        "type": "Point",
        "coordinates": [
          11.114,
          52.0895
        ]
      },
      "properties": {
        "name": "Ausleben wind farm",
        "capacity": "11.0",
        "installation_type": "Onshore",
        "status": "Operating",
        "start_year": "1999.0",
        "last_researched": "2023/04/06"
      }
    },
    {
      "type": "Feature",
      "geometry": {
        "type": "Point",
        "coordinates": [
          9.5,
          53.3728
        ]
      },
      "properties": {
        "name": "AWOMO wind farm",
        "capacity": "46.0",
        "installation_type": "Onshore",
        "status": "Operating",
        "start_year": "2012.0",
        "last_researched": "2022/04/05"
      }
    },
    {
      "type": "Feature",
      "geometry": {
        "type": "Point",
        "coordinates": [
          7.084,
          52.3215
        ]
      },
      "properties": {
        "name": "Bad Bentheim wind farm",
        "capacity": "11.0",
        "installation_type": "Onshore",
        "status": "Operating",
        "start_year": "2018.0",
        "last_researched": "2022/04/05"
      }
    },
    {
      "type": "Feature",
      "geometry": {
        "type": "Point",
        "coordinates": [
          9.2128,
          51.2852
        ]
      },
      "properties": {
        "name": "Bad Emstal wind farm",
        "capacity": "12.0",
        "installation_type": "Onshore",
        "status": "Operating",
        "start_year": "2007.0",
        "last_researched": "2022/04/05"
      }
    },
    {
      "type": "Feature",
      "geometry": {
        "type": "Point",
        "coordinates": [
          9.6946,
          50.9028
        ]
      },
      "properties": {
        "name": "Bad Hersfeld Wehneberg wind farm",
        "capacity": "15.0",
        "installation_type": "Onshore",
        "status": "Operating",
        "start_year": "2014.0",
        "last_researched": "2022/04/05"
      }
    },
    {
      "type": "Feature",
      "geometry": {
        "type": "Point",
        "coordinates": [
          8.3777,
          50.9027
        ]
      },
      "properties": {
        "name": "Bad Laasphe wind farm",
        "capacity": "19.0",
        "installation_type": "Onshore",
        "status": "Operating",
        "start_year": "2013.0",
        "last_researched": "2022/04/05"
      }
    },
    {
      "type": "Feature",
      "geometry": {
        "type": "Point",
        "coordinates": [
          10.6284,
          51.0387
        ]
      },
      "properties": {
        "name": "Bad Langensalza wind farm",
        "capacity": "11.0",
        "installation_type": "Onshore",
        "status": "Operating",
        "start_year": "2001.0",
        "last_researched": "2022/04/05"
      }
    },
    {
      "type": "Feature",
      "geometry": {
        "type": "Point",
        "coordinates": [
          9.5691,
          48.0203
        ]
      },
      "properties": {
        "name": "Bad Saulgau wind farm",
        "capacity": "11.0",
        "installation_type": "Onshore",
        "status": "Operating",
        "start_year": "2019.0",
        "last_researched": "2022/04/05"
      }
    },
    {
      "type": "Feature",
      "geometry": {
        "type": "Point",
        "coordinates": [
          10.8388,
          51.1528
        ]
      },
      "properties": {
        "name": "Bad Tennstedt wind farm",
        "capacity": "20.0",
        "installation_type": "Onshore",
        "status": "Operating",
        "start_year": "2006.0",
        "last_researched": "2022/04/05"
      }
    },
    {
      "type": "Feature",
      "geometry": {
        "type": "Point",
        "coordinates": [
          8.0356,
          52.6625
        ]
      },
      "properties": {
        "name": "Badbergen wind farm",
        "capacity": "25.0",
        "installation_type": "Onshore",
        "status": "Operating",
        "start_year": "2002.0",
        "last_researched": "2022/04/05"
      }
    },
    {
      "type": "Feature",
      "geometry": {
        "type": "Point",
        "coordinates": [
          11.3514,
          52.7431
        ]
      },
      "properties": {
        "name": "Badel wind farm",
        "capacity": "23.0",
        "installation_type": "Onshore",
        "status": "Operating",
        "start_year": "2002.0",
        "last_researched": "2022/04/05"
      }
    },
    {
      "type": "Feature",
      "geometry": {
        "type": "Point",
        "coordinates": [
          10.9671,
          52.1389
        ]
      },
      "properties": {
        "name": "Badeleben wind farm",
        "capacity": "10.0",
        "installation_type": "Onshore",
        "status": "Operating",
        "start_year": "2005.0",
        "last_researched": "2022/04/05"
      }
    },
    {
      "type": "Feature",
      "geometry": {
        "type": "Point",
        "coordinates": [
          11.1487,
          52.1295
        ]
      },
      "properties": {
        "name": "Badeleben wind farm",
        "capacity": "42.0",
        "installation_type": "Onshore",
        "status": "Operating",
        "start_year": "nan",
        "last_researched": "2022/04/05"
      }
    },
    {
      "type": "Feature",
      "geometry": {
        "type": "Point",
        "coordinates": [
          11.1234,
          53.6292
        ]
      },
      "properties": {
        "name": "Badow wind farm",
        "capacity": "25.0",
        "installation_type": "Onshore",
        "status": "Operating",
        "start_year": "2015.0",
        "last_researched": "2022/04/05"
      }
    },
    {
      "type": "Feature",
      "geometry": {
        "type": "Point",
        "coordinates": [
          6.1601,
          50.8988
        ]
      },
      "properties": {
        "name": "Baesweiler wind farm",
        "capacity": "14.0",
        "installation_type": "Onshore",
        "status": "Operating",
        "start_year": "2023.0",
        "last_researched": "2024/02/29"
      }
    },
    {
      "type": "Feature",
      "geometry": {
        "type": "Point",
        "coordinates": [
          7.582,
          53.354
        ]
      },
      "properties": {
        "name": "Bagband wind farm",
        "capacity": "40.0",
        "installation_type": "Onshore",
        "status": "Operating",
        "start_year": "2014.0",
        "last_researched": "2022/04/05"
      }
    },
    {
      "type": "Feature",
      "geometry": {
        "type": "Point",
        "coordinates": [
          8.1124,
          52.7513
        ]
      },
      "properties": {
        "name": "Bakum wind farm",
        "capacity": "10.0",
        "installation_type": "Onshore",
        "status": "Operating",
        "start_year": "2022.0",
        "last_researched": "2023/03/14"
      }
    },
    {
      "type": "Feature",
      "geometry": {
        "type": "Point",
        "coordinates": [
          7.9382,
          52.4583
        ]
      },
      "properties": {
        "name": "Balkum-Thiene wind farm",
        "capacity": "28.0",
        "installation_type": "Onshore",
        "status": "Operating",
        "start_year": "2007.0",
        "last_researched": "2022/04/05"
      }
    },
    {
      "type": "Feature",
      "geometry": {
        "type": "Point",
        "coordinates": [
          13.8014,
          54.8506
        ]
      },
      "properties": {
        "name": "Baltic Eagle wind farm",
        "capacity": "476.0",
        "installation_type": "Offshore hard mount",
        "status": "Operating",
        "start_year": "2024.0",
        "last_researched": "2025/01/06"
      }
    },
    {
      "type": "Feature",
      "geometry": {
        "type": "Point",
        "coordinates": [
          10.8147,
          53.0219
        ]
      },
      "properties": {
        "name": "Bankewitz wind farm",
        "capacity": "44.0",
        "installation_type": "Onshore",
        "status": "Operating",
        "start_year": "2023.0",
        "last_researched": "2024/02/29"
      }
    },
    {
      "type": "Feature",
      "geometry": {
        "type": "Point",
        "coordinates": [
          10.2883,
          52.1776
        ]
      },
      "properties": {
        "name": "Barbecke (RWE) wind farm",
        "capacity": "17.0",
        "installation_type": "Onshore",
        "status": "Operating",
        "start_year": "2024.0",
        "last_researched": "2025/01/06"
      }
    },
    {
      "type": "Feature",
      "geometry": {
        "type": "Point",
        "coordinates": [
          5.98,
          54.355
        ]
      },
      "properties": {
        "name": "BARD Offshore wind farm",
        "capacity": "400.0",
        "installation_type": "Offshore hard mount",
        "status": "Operating",
        "start_year": "2013.0",
        "last_researched": "2022/04/05"
      }
    },
    {
      "type": "Feature",
      "geometry": {
        "type": "Point",
        "coordinates": [
          8.3997,
          53.222
        ]
      },
      "properties": {
        "name": "Bardenfleth wind farm",
        "capacity": "14.0",
        "installation_type": "Onshore",
        "status": "Operating",
        "start_year": "2019.0",
        "last_researched": "2022/04/05"
      }
    },
    {
      "type": "Feature",
      "geometry": {
        "type": "Point",
        "coordinates": [
          10.3518,
          53.3071
        ]
      },
      "properties": {
        "name": "Bardowick wind farm",
        "capacity": "22.0",
        "installation_type": "Onshore",
        "status": "Operating",
        "start_year": "2018.0",
        "last_researched": "2022/04/05"
      }
    },
    {
      "type": "Feature",
      "geometry": {
        "type": "Point",
        "coordinates": [
          12.7531,
          51.6319
        ]
      },
      "properties": {
        "name": "B\u00e4rfang (Brandenburg) wind farm",
        "capacity": "16.0",
        "installation_type": "Onshore",
        "status": "Operating",
        "start_year": "2018.0",
        "last_researched": "2022/04/05"
      }
    },
    {
      "type": "Feature",
      "geometry": {
        "type": "Point",
        "coordinates": [
          13.3771,
          51.6561
        ]
      },
      "properties": {
        "name": "B\u00e4rfang (Schleswig-Holstein) wind farm",
        "capacity": "16.0",
        "installation_type": "Onshore",
        "status": "Operating",
        "start_year": "2018.0",
        "last_researched": "2022/04/05"
      }
    },
    {
      "type": "Feature",
      "geometry": {
        "type": "Point",
        "coordinates": [
          9.6707,
          54.7373
        ]
      },
      "properties": {
        "name": "Barg-Schwensby wind farm",
        "capacity": "10.0",
        "installation_type": "Onshore",
        "status": "Operating",
        "start_year": "2015.0",
        "last_researched": "2022/04/05"
      }
    },
    {
      "type": "Feature",
      "geometry": {
        "type": "Point",
        "coordinates": [
          12.1708,
          53.4526
        ]
      },
      "properties": {
        "name": "Barkow wind farm",
        "capacity": "33.0",
        "installation_type": "Onshore",
        "status": "Operating",
        "start_year": "2014.0",
        "last_researched": "2022/04/05"
      }
    },
    {
      "type": "Feature",
      "geometry": {
        "type": "Point",
        "coordinates": [
          12.1708,
          53.4526
        ]
      },
      "properties": {
        "name": "Barkow wind farm",
        "capacity": "17.0",
        "installation_type": "Onshore",
        "status": "Operating",
        "start_year": "2016.0",
        "last_researched": "2022/04/05"
      }
    },
    {
      "type": "Feature",
      "geometry": {
        "type": "Point",
        "coordinates": [
          9.0715,
          54.0019
        ]
      },
      "properties": {
        "name": "Barlt Ost wind farm",
        "capacity": "22.0",
        "installation_type": "Onshore",
        "status": "Operating",
        "start_year": "2015.0",
        "last_researched": "2022/04/05"
      }
    },
    {
      "type": "Feature",
      "geometry": {
        "type": "Point",
        "coordinates": [
          9.0169,
          54.0129
        ]
      },
      "properties": {
        "name": "Barlt West wind farm",
        "capacity": "14.0",
        "installation_type": "Onshore",
        "status": "Operating",
        "start_year": "2012.0",
        "last_researched": "2022/04/05"
      }
    },
    {
      "type": "Feature",
      "geometry": {
        "type": "Point",
        "coordinates": [
          9.5128,
          53.1235
        ]
      },
      "properties": {
        "name": "Bartelsdorf wind farm",
        "capacity": "32.0",
        "installation_type": "Onshore",
        "status": "Operating",
        "start_year": "2009.0",
        "last_researched": "2024/03/02"
      }
    },
    {
      "type": "Feature",
      "geometry": {
        "type": "Point",
        "coordinates": [
          9.4985,
          53.1191
        ]
      },
      "properties": {
        "name": "Bartelsdorf wind farm",
        "capacity": "28.0",
        "installation_type": "Onshore",
        "status": "Operating",
        "start_year": "2023.0",
        "last_researched": "2024/02/29"
      }
    },
    {
      "type": "Feature",
      "geometry": {
        "type": "Point",
        "coordinates": [
          13.3237,
          53.8293
        ]
      },
      "properties": {
        "name": "Bartow wind farm",
        "capacity": "14.0",
        "installation_type": "Onshore",
        "status": "Operating",
        "start_year": "2018.0",
        "last_researched": "2022/04/05"
      }
    },
    {
      "type": "Feature",
      "geometry": {
        "type": "Point",
        "coordinates": [
          8.5667,
          52.5992
        ]
      },
      "properties": {
        "name": "Barver S\u00fcd wind farm",
        "capacity": "10.0",
        "installation_type": "Onshore",
        "status": "Operating",
        "start_year": "2002.0",
        "last_researched": "2022/04/05"
      }
    },
    {
      "type": "Feature",
      "geometry": {
        "type": "Point",
        "coordinates": [
          10.5633,
          53.4192
        ]
      },
      "properties": {
        "name": "Basedow wind farm",
        "capacity": "18.0",
        "installation_type": "Onshore",
        "status": "Operating",
        "start_year": "2003.0",
        "last_researched": "2022/04/05"
      }
    },
    {
      "type": "Feature",
      "geometry": {
        "type": "Point",
        "coordinates": [
          7.9283,
          53.6942
        ]
      },
      "properties": {
        "name": "Bassens wind farm",
        "capacity": "20.0",
        "installation_type": "Onshore",
        "status": "Operating",
        "start_year": "1997.0",
        "last_researched": "2022/04/05"
      }
    },
    {
      "type": "Feature",
      "geometry": {
        "type": "Point",
        "coordinates": [
          7.931,
          53.6948
        ]
      },
      "properties": {
        "name": "Bassens wind farm",
        "capacity": "30.0",
        "installation_type": "Onshore",
        "status": "Operating",
        "start_year": "2014.0",
        "last_researched": "2022/04/05"
      }
    },
    {
      "type": "Feature",
      "geometry": {
        "type": "Point",
        "coordinates": [
          7.5367,
          52.5944
        ]
      },
      "properties": {
        "name": "Baw\u00f6ste wind farm",
        "capacity": "26.0",
        "installation_type": "Onshore",
        "status": "Operating",
        "start_year": "2011.0",
        "last_researched": "2022/04/05"
      }
    },
    {
      "type": "Feature",
      "geometry": {
        "type": "Point",
        "coordinates": [
          9.3328,
          49.6659
        ]
      },
      "properties": {
        "name": "Bayerischer Odenwald wind farm",
        "capacity": "12.0",
        "installation_type": "Onshore",
        "status": "Operating",
        "start_year": "2013.0",
        "last_researched": "2022/04/05"
      }
    },
    {
      "type": "Feature",
      "geometry": {
        "type": "Point",
        "coordinates": [
          9.1676,
          54.8642
        ]
      },
      "properties": {
        "name": "Bb wind farm",
        "capacity": "19.0",
        "installation_type": "Onshore",
        "status": "Operating",
        "start_year": "2014.0",
        "last_researched": "2022/04/05"
      }
    },
    {
      "type": "Feature",
      "geometry": {
        "type": "Point",
        "coordinates": [
          9.0566,
          54.0124
        ]
      },
      "properties": {
        "name": "Bbe wind farm",
        "capacity": "15.0",
        "installation_type": "Onshore",
        "status": "Operating",
        "start_year": "2015.0",
        "last_researched": "2022/04/05"
      }
    },
    {
      "type": "Feature",
      "geometry": {
        "type": "Point",
        "coordinates": [
          7.993,
          51.7247
        ]
      },
      "properties": {
        "name": "Beckum wind farm",
        "capacity": "16.0",
        "installation_type": "Onshore",
        "status": "Operating",
        "start_year": "2020.0",
        "last_researched": "2023/04/04"
      }
    },
    {
      "type": "Feature",
      "geometry": {
        "type": "Point",
        "coordinates": [
          6.4904,
          51.0271
        ]
      },
      "properties": {
        "name": "Bedburg (ABO) wind farm",
        "capacity": "24.0",
        "installation_type": "Onshore",
        "status": "Operating",
        "start_year": "2006.0",
        "last_researched": "2022/04/05"
      }
    },
    {
      "type": "Feature",
      "geometry": {
        "type": "Point",
        "coordinates": [
          6.5262,
          51.0404
        ]
      },
      "properties": {
        "name": "Bedburg (RWE) wind farm",
        "capacity": "67.0",
        "installation_type": "Onshore",
        "status": "Operating",
        "start_year": "2015.0",
        "last_researched": "2022/04/05"
      }
    },
    {
      "type": "Feature",
      "geometry": {
        "type": "Point",
        "coordinates": [
          6.5075,
          51.0391
        ]
      },
      "properties": {
        "name": "Bedburg (RWE) wind farm",
        "capacity": "29.0",
        "installation_type": "Onshore",
        "status": "Operating",
        "start_year": "2022.0",
        "last_researched": "2024/03/18"
      }
    },
    {
      "type": "Feature",
      "geometry": {
        "type": "Point",
        "coordinates": [
          10.2739,
          52.6385
        ]
      },
      "properties": {
        "name": "Beedenbostel wind farm",
        "capacity": "15.0",
        "installation_type": "Onshore",
        "status": "Operating",
        "start_year": "2017.0",
        "last_researched": "2022/04/05"
      }
    },
    {
      "type": "Feature",
      "geometry": {
        "type": "Point",
        "coordinates": [
          14.0427,
          52.4419
        ]
      },
      "properties": {
        "name": "Beerfelde wind farm",
        "capacity": "11.0",
        "installation_type": "Onshore",
        "status": "Operating",
        "start_year": "2022.0",
        "last_researched": "2023/03/08"
      }
    },
    {
      "type": "Feature",
      "geometry": {
        "type": "Point",
        "coordinates": [
          13.8414,
          53.3943
        ]
      },
      "properties": {
        "name": "Beesenberg wind farm",
        "capacity": "41.0",
        "installation_type": "Onshore",
        "status": "Operating",
        "start_year": "2018.0",
        "last_researched": "2022/04/05"
      }
    },
    {
      "type": "Feature",
      "geometry": {
        "type": "Point",
        "coordinates": [
          13.8343,
          53.3999
        ]
      },
      "properties": {
        "name": "Beesenberg wind farm",
        "capacity": "11.0",
        "installation_type": "Onshore",
        "status": "Operating",
        "start_year": "2021.0",
        "last_researched": "2023/03/28"
      }
    },
    {
      "type": "Feature",
      "geometry": {
        "type": "Point",
        "coordinates": [
          11.4223,
          51.3425
        ]
      },
      "properties": {
        "name": "Beesenstedt wind farm",
        "capacity": "12.0",
        "installation_type": "Onshore",
        "status": "Operating",
        "start_year": "2000.0",
        "last_researched": "2022/04/05"
      }
    },
    {
      "type": "Feature",
      "geometry": {
        "type": "Point",
        "coordinates": [
          11.7,
          51.57
        ]
      },
      "properties": {
        "name": "Beesenstedt wind farm",
        "capacity": "14.0",
        "installation_type": "Onshore",
        "status": "Operating",
        "start_year": "nan",
        "last_researched": "2022/04/05"
      }
    },
    {
      "type": "Feature",
      "geometry": {
        "type": "Point",
        "coordinates": [
          11.7114,
          51.5803
        ]
      },
      "properties": {
        "name": "Beesenstedt wind farm",
        "capacity": "10.0",
        "installation_type": "Onshore",
        "status": "Operating",
        "start_year": "2004.0",
        "last_researched": "2022/04/05"
      }
    },
    {
      "type": "Feature",
      "geometry": {
        "type": "Point",
        "coordinates": [
          11.72,
          51.5831
        ]
      },
      "properties": {
        "name": "Beesenstedt wind farm",
        "capacity": "12.0",
        "installation_type": "Onshore",
        "status": "Operating",
        "start_year": "2010.0",
        "last_researched": "2022/04/05"
      }
    },
    {
      "type": "Feature",
      "geometry": {
        "type": "Point",
        "coordinates": [
          14.2439,
          52.2035
        ]
      },
      "properties": {
        "name": "Beeskow-Hufenfeld wind farm",
        "capacity": "14.0",
        "installation_type": "Onshore",
        "status": "Operating",
        "start_year": "2003.0",
        "last_researched": "2022/04/05"
      }
    },
    {
      "type": "Feature",
      "geometry": {
        "type": "Point",
        "coordinates": [
          14.2146,
          52.191
        ]
      },
      "properties": {
        "name": "Beeskow-Neuendorf wind farm",
        "capacity": "20.0",
        "installation_type": "Onshore",
        "status": "Operating",
        "start_year": "2002.0",
        "last_researched": "2022/04/05"
      }
    },
    {
      "type": "Feature",
      "geometry": {
        "type": "Point",
        "coordinates": [
          13.0283,
          53.8352
        ]
      },
      "properties": {
        "name": "Beggerow-Borrentin wind farm",
        "capacity": "16.0",
        "installation_type": "Onshore",
        "status": "Operating",
        "start_year": "2013.0",
        "last_researched": "2022/04/05"
      }
    },
    {
      "type": "Feature",
      "geometry": {
        "type": "Point",
        "coordinates": [
          9.2135,
          54.5736
        ]
      },
      "properties": {
        "name": "Behrendorf wind farm",
        "capacity": "18.0",
        "installation_type": "Onshore",
        "status": "Operating",
        "start_year": "2012.0",
        "last_researched": "2022/04/05"
      }
    },
    {
      "type": "Feature",
      "geometry": {
        "type": "Point",
        "coordinates": [
          9.2123,
          54.58
        ]
      },
      "properties": {
        "name": "Behrendorf wind farm",
        "capacity": "19.0",
        "installation_type": "Onshore",
        "status": "Operating",
        "start_year": "2015.0",
        "last_researched": "2023/04/04"
      }
    },
    {
      "type": "Feature",
      "geometry": {
        "type": "Point",
        "coordinates": [
          9.3862,
          53.8694
        ]
      },
      "properties": {
        "name": "Beidenfleth wind farm",
        "capacity": "15.0",
        "installation_type": "Onshore",
        "status": "Operating",
        "start_year": "2015.0",
        "last_researched": "2022/04/05"
      }
    },
    {
      "type": "Feature",
      "geometry": {
        "type": "Point",
        "coordinates": [
          13.8493,
          52.7023
        ]
      },
      "properties": {
        "name": "Beiersdorf wind farm",
        "capacity": "11.0",
        "installation_type": "Onshore",
        "status": "Operating",
        "start_year": "2022.0",
        "last_researched": "2024/03/18"
      }
    },
    {
      "type": "Feature",
      "geometry": {
        "type": "Point",
        "coordinates": [
          13.8252,
          52.6893
        ]
      },
      "properties": {
        "name": "Beiersdorf-Freudenberg wind farm",
        "capacity": "16.0",
        "installation_type": "Onshore",
        "status": "Operating",
        "start_year": "2014.0",
        "last_researched": "2022/04/05"
      }
    },
    {
      "type": "Feature",
      "geometry": {
        "type": "Point",
        "coordinates": [
          9.0656,
          51.8845
        ]
      },
      "properties": {
        "name": "Belle wind farm",
        "capacity": "30.0",
        "installation_type": "Onshore",
        "status": "Operating",
        "start_year": "2023.0",
        "last_researched": "2024/02/29"
      }
    },
    {
      "type": "Feature",
      "geometry": {
        "type": "Point",
        "coordinates": [
          7.4955,
          50.102
        ]
      },
      "properties": {
        "name": "Beltheim II wind farm",
        "capacity": "16.0",
        "installation_type": "Onshore",
        "status": "Operating",
        "start_year": "2013.0",
        "last_researched": "2022/04/05"
      }
    },
    {
      "type": "Feature",
      "geometry": {
        "type": "Point",
        "coordinates": [
          8.9903,
          53.8009
        ]
      },
      "properties": {
        "name": "Belum wind farm",
        "capacity": "16.0",
        "installation_type": "Onshore",
        "status": "Operating",
        "start_year": "2004.0",
        "last_researched": "2022/04/05"
      }
    },
    {
      "type": "Feature",
      "geometry": {
        "type": "Point",
        "coordinates": [
          9.3579,
          54.0936
        ]
      },
      "properties": {
        "name": "Bendorf wind farm",
        "capacity": "12.0",
        "installation_type": "Onshore",
        "status": "Operating",
        "start_year": "2014.0",
        "last_researched": "2022/04/05"
      }
    },
    {
      "type": "Feature",
      "geometry": {
        "type": "Point",
        "coordinates": [
          9.2334,
          54.0587
        ]
      },
      "properties": {
        "name": "Bendorf-Oersdorf wind farm",
        "capacity": "28.0",
        "installation_type": "Onshore",
        "status": "Operating",
        "start_year": "2014.0",
        "last_researched": "2022/04/05"
      }
    },
    {
      "type": "Feature",
      "geometry": {
        "type": "Point",
        "coordinates": [
          9.3829,
          54.1003
        ]
      },
      "properties": {
        "name": "Bendorf-Ost wind farm",
        "capacity": "17.0",
        "installation_type": "Onshore",
        "status": "Operating",
        "start_year": "2022.0",
        "last_researched": "2024/03/18"
      }
    },
    {
      "type": "Feature",
      "geometry": {
        "type": "Point",
        "coordinates": [
          7.857,
          53.3894
        ]
      },
      "properties": {
        "name": "Bentstreek wind farm",
        "capacity": "18.0",
        "installation_type": "Onshore",
        "status": "Operating",
        "start_year": "2003.0",
        "last_researched": "2022/04/05"
      }
    },
    {
      "type": "Feature",
      "geometry": {
        "type": "Point",
        "coordinates": [
          7.6125,
          50.0361
        ]
      },
      "properties": {
        "name": "Benzweiler wind farm",
        "capacity": "13.0",
        "installation_type": "Onshore",
        "status": "Operating",
        "start_year": "2017.0",
        "last_researched": "2022/04/05"
      }
    },
    {
      "type": "Feature",
      "geometry": {
        "type": "Point",
        "coordinates": [
          9.0289,
          52.9389
        ]
      },
      "properties": {
        "name": "Beppener Bruch wind farm",
        "capacity": "29.0",
        "installation_type": "Onshore",
        "status": "Operating",
        "start_year": "2003.0",
        "last_researched": "2022/04/05"
      }
    },
    {
      "type": "Feature",
      "geometry": {
        "type": "Point",
        "coordinates": [
          9.029,
          52.9382
        ]
      },
      "properties": {
        "name": "Beppener Bruch wind farm",
        "capacity": "18.0",
        "installation_type": "Onshore",
        "status": "Operating",
        "start_year": "2006.0",
        "last_researched": "2022/04/05"
      }
    },
    {
      "type": "Feature",
      "geometry": {
        "type": "Point",
        "coordinates": [
          11.4897,
          49.093
        ]
      },
      "properties": {
        "name": "Berching wind farm",
        "capacity": "13.0",
        "installation_type": "Onshore",
        "status": "Operating",
        "start_year": "2012.0",
        "last_researched": "2022/04/05"
      }
    },
    {
      "type": "Feature",
      "geometry": {
        "type": "Point",
        "coordinates": [
          11.4083,
          47.983
        ]
      },
      "properties": {
        "name": "Berg wind farm (Germany)",
        "capacity": "12.0",
        "installation_type": "Onshore",
        "status": "Operating",
        "start_year": "2015.0",
        "last_researched": "2022/04/05"
      }
    },
    {
      "type": "Feature",
      "geometry": {
        "type": "Point",
        "coordinates": [
          11.842,
          53.2397
        ]
      },
      "properties": {
        "name": "Berge-Kleeste wind farm",
        "capacity": "16.0",
        "installation_type": "Onshore",
        "status": "Operating",
        "start_year": "2003.0",
        "last_researched": "2022/04/05"
      }
    },
    {
      "type": "Feature",
      "geometry": {
        "type": "Point",
        "coordinates": [
          11.842,
          53.2397
        ]
      },
      "properties": {
        "name": "Berge-Kleeste wind farm",
        "capacity": "12.0",
        "installation_type": "Onshore",
        "status": "Operating",
        "start_year": "2003.0",
        "last_researched": "2022/04/05"
      }
    },
    {
      "type": "Feature",
      "geometry": {
        "type": "Point",
        "coordinates": [
          12.801,
          52.595
        ]
      },
      "properties": {
        "name": "Berge-Lietzow-Nauen wind farm",
        "capacity": "38.0",
        "installation_type": "Onshore",
        "status": "Operating",
        "start_year": "2005.0",
        "last_researched": "2022/04/05"
      }
    },
    {
      "type": "Feature",
      "geometry": {
        "type": "Point",
        "coordinates": [
          6.637,
          50.9809
        ]
      },
      "properties": {
        "name": "Bergheim Wiedenfelder H\u00f6he wind farm",
        "capacity": "13.0",
        "installation_type": "Onshore",
        "status": "Operating",
        "start_year": "2017.0",
        "last_researched": "2022/04/05"
      }
    },
    {
      "type": "Feature",
      "geometry": {
        "type": "Point",
        "coordinates": [
          6.7107,
          51.0124
        ]
      },
      "properties": {
        "name": "Bergheim wind farm",
        "capacity": "11.0",
        "installation_type": "Onshore",
        "status": "Operating",
        "start_year": "2024.0",
        "last_researched": "2024/03/19"
      }
    },
    {
      "type": "Feature",
      "geometry": {
        "type": "Point",
        "coordinates": [
          14.1555,
          53.4593
        ]
      },
      "properties": {
        "name": "Bergholz wind farm",
        "capacity": "12.0",
        "installation_type": "Onshore",
        "status": "Operating",
        "start_year": "1999.0",
        "last_researched": "2022/04/05"
      }
    },
    {
      "type": "Feature",
      "geometry": {
        "type": "Point",
        "coordinates": [
          6.9379,
          49.7778
        ]
      },
      "properties": {
        "name": "Berglicht wind farm",
        "capacity": "20.0",
        "installation_type": "Onshore",
        "status": "Operating",
        "start_year": "2024.0",
        "last_researched": "2025/01/06"
      }
    },
    {
      "type": "Feature",
      "geometry": {
        "type": "Point",
        "coordinates": [
          6.9434,
          49.7799
        ]
      },
      "properties": {
        "name": "Berglichter wind farm",
        "capacity": "13.0",
        "installation_type": "Onshore",
        "status": "Operating",
        "start_year": "2017.0",
        "last_researched": "2022/04/05"
      }
    },
    {
      "type": "Feature",
      "geometry": {
        "type": "Point",
        "coordinates": [
          8.4196,
          53.1397
        ]
      },
      "properties": {
        "name": "Berne wind farm",
        "capacity": "14.0",
        "installation_type": "Onshore",
        "status": "Operating",
        "start_year": "2015.0",
        "last_researched": "2022/04/05"
      }
    },
    {
      "type": "Feature",
      "geometry": {
        "type": "Point",
        "coordinates": [
          9.5286,
          50.7371
        ]
      },
      "properties": {
        "name": "Berngerode wind farm",
        "capacity": "30.0",
        "installation_type": "Onshore",
        "status": "Operating",
        "start_year": "2015.0",
        "last_researched": "2022/04/05"
      }
    },
    {
      "type": "Feature",
      "geometry": {
        "type": "Point",
        "coordinates": [
          11.9183,
          53.8936
        ]
      },
      "properties": {
        "name": "Bernitt wind farm",
        "capacity": "12.0",
        "installation_type": "Onshore",
        "status": "Operating",
        "start_year": "2014.0",
        "last_researched": "2022/04/05"
      }
    },
    {
      "type": "Feature",
      "geometry": {
        "type": "Point",
        "coordinates": [
          12.6761,
          50.7578
        ]
      },
      "properties": {
        "name": "Bernsdorf-Gersdorf wind farm",
        "capacity": "10.0",
        "installation_type": "Onshore",
        "status": "Operating",
        "start_year": "2019.0",
        "last_researched": "2022/04/05"
      }
    },
    {
      "type": "Feature",
      "geometry": {
        "type": "Point",
        "coordinates": [
          14.8262,
          51.0357
        ]
      },
      "properties": {
        "name": "Bernstadt wind farm",
        "capacity": "11.0",
        "installation_type": "Onshore",
        "status": "Operating",
        "start_year": "2003.0",
        "last_researched": "2022/04/05"
      }
    },
    {
      "type": "Feature",
      "geometry": {
        "type": "Point",
        "coordinates": [
          13.9467,
          53.2561
        ]
      },
      "properties": {
        "name": "Bertikow wind farm",
        "capacity": "22.0",
        "installation_type": "Onshore",
        "status": "Operating",
        "start_year": "2024.0",
        "last_researched": "2024/02/29"
      }
    },
    {
      "type": "Feature",
      "geometry": {
        "type": "Point",
        "coordinates": [
          11.9169,
          52.7035
        ]
      },
      "properties": {
        "name": "Bertkow wind farm",
        "capacity": "22.0",
        "installation_type": "Onshore",
        "status": "Operating",
        "start_year": "2001.0",
        "last_researched": "2022/04/05"
      }
    },
    {
      "type": "Feature",
      "geometry": {
        "type": "Point",
        "coordinates": [
          11.9003,
          52.7156
        ]
      },
      "properties": {
        "name": "Bertkow wind farm",
        "capacity": "55.0",
        "installation_type": "Onshore",
        "status": "Operating",
        "start_year": "2004.0",
        "last_researched": "2022/04/05"
      }
    },
    {
      "type": "Feature",
      "geometry": {
        "type": "Point",
        "coordinates": [
          6.8773,
          49.7398
        ]
      },
      "properties": {
        "name": "Bescheid S\u00fcd wind farm",
        "capacity": "17.0",
        "installation_type": "Onshore",
        "status": "Operating",
        "start_year": "2023.0",
        "last_researched": "2024/03/22"
      }
    },
    {
      "type": "Feature",
      "geometry": {
        "type": "Point",
        "coordinates": [
          10.1368,
          49.3338
        ]
      },
      "properties": {
        "name": "Bettenfeld wind farm",
        "capacity": "12.0",
        "installation_type": "Onshore",
        "status": "Operating",
        "start_year": "2014.0",
        "last_researched": "2022/04/05"
      }
    },
    {
      "type": "Feature",
      "geometry": {
        "type": "Point",
        "coordinates": [
          7.0449,
          50.0894
        ]
      },
      "properties": {
        "name": "Beuren wind farm",
        "capacity": "24.0",
        "installation_type": "Onshore",
        "status": "Operating",
        "start_year": "2024.0",
        "last_researched": "2025/01/07"
      }
    },
    {
      "type": "Feature",
      "geometry": {
        "type": "Point",
        "coordinates": [
          10.6194,
          53.0186
        ]
      },
      "properties": {
        "name": "Bevensen-Masendorf wind farm",
        "capacity": "14.0",
        "installation_type": "Onshore",
        "status": "Operating",
        "start_year": "2006.0",
        "last_researched": "2022/04/05"
      }
    },
    {
      "type": "Feature",
      "geometry": {
        "type": "Point",
        "coordinates": [
          7.266,
          53.632
        ]
      },
      "properties": {
        "name": "Bgp Rakow wind farm",
        "capacity": "14.0",
        "installation_type": "Onshore",
        "status": "Operating",
        "start_year": "nan",
        "last_researched": "2022/04/05"
      }
    },
    {
      "type": "Feature",
      "geometry": {
        "type": "Point",
        "coordinates": [
          7.5342,
          50.1056
        ]
      },
      "properties": {
        "name": "Bickenbach wind farm",
        "capacity": "10.0",
        "installation_type": "Onshore",
        "status": "Operating",
        "start_year": "2009.0",
        "last_researched": "2023/04/06"
      }
    },
    {
      "type": "Feature",
      "geometry": {
        "type": "Point",
        "coordinates": [
          8.1522,
          49.8169
        ]
      },
      "properties": {
        "name": "Biebelnheim-Gabsheim wind farm",
        "capacity": "22.0",
        "installation_type": "Onshore",
        "status": "Operating",
        "start_year": "2023.0",
        "last_researched": "2024/02/29"
      }
    },
    {
      "type": "Feature",
      "geometry": {
        "type": "Point",
        "coordinates": [
          13.9743,
          51.9713
        ]
      },
      "properties": {
        "name": "Biebersdorf wind farm",
        "capacity": "28.0",
        "installation_type": "Onshore",
        "status": "Operating",
        "start_year": "2011.0",
        "last_researched": "2022/04/05"
      }
    },
    {
      "type": "Feature",
      "geometry": {
        "type": "Point",
        "coordinates": [
          14.3809,
          52.3175
        ]
      },
      "properties": {
        "name": "Biegen (NOTUS) wind farm",
        "capacity": "11.0",
        "installation_type": "Onshore",
        "status": "Operating",
        "start_year": "2021.0",
        "last_researched": "2023/03/15"
      }
    },
    {
      "type": "Feature",
      "geometry": {
        "type": "Point",
        "coordinates": [
          14.3896,
          52.3065
        ]
      },
      "properties": {
        "name": "Biegen wind farm",
        "capacity": "24.0",
        "installation_type": "Onshore",
        "status": "Operating",
        "start_year": "2022.0",
        "last_researched": "2023/02/28"
      }
    },
    {
      "type": "Feature",
      "geometry": {
        "type": "Point",
        "coordinates": [
          11.6273,
          51.9551
        ]
      },
      "properties": {
        "name": "Biere (Lorica) wind farm",
        "capacity": "27.0",
        "installation_type": "Onshore",
        "status": "Operating",
        "start_year": "2009.0",
        "last_researched": "2022/04/05"
      }
    },
    {
      "type": "Feature",
      "geometry": {
        "type": "Point",
        "coordinates": [
          11.6142,
          51.972
        ]
      },
      "properties": {
        "name": "Biere (WPD) wind farm",
        "capacity": "24.0",
        "installation_type": "Onshore",
        "status": "Operating",
        "start_year": "2002.0",
        "last_researched": "2022/04/05"
      }
    },
    {
      "type": "Feature",
      "geometry": {
        "type": "Point",
        "coordinates": [
          13.9629,
          53.2744
        ]
      },
      "properties": {
        "name": "Bietikow wind farm",
        "capacity": "17.0",
        "installation_type": "Onshore",
        "status": "Operating",
        "start_year": "2021.0",
        "last_researched": "2022/04/05"
      }
    },
    {
      "type": "Feature",
      "geometry": {
        "type": "Point",
        "coordinates": [
          9.2127,
          50.7446
        ]
      },
      "properties": {
        "name": "Billertshausen wind farm",
        "capacity": "10.0",
        "installation_type": "Onshore",
        "status": "Operating",
        "start_year": "2003.0",
        "last_researched": "2022/04/05"
      }
    },
    {
      "type": "Feature",
      "geometry": {
        "type": "Point",
        "coordinates": [
          7.0564,
          52.4969
        ]
      },
      "properties": {
        "name": "Bimolten wind farm",
        "capacity": "26.0",
        "installation_type": "Onshore",
        "status": "Operating",
        "start_year": "2003.0",
        "last_researched": "2022/04/05"
      }
    },
    {
      "type": "Feature",
      "geometry": {
        "type": "Point",
        "coordinates": [
          7.6656,
          52.5735
        ]
      },
      "properties": {
        "name": "Bippen wind farm",
        "capacity": "28.0",
        "installation_type": "Onshore",
        "status": "Operating",
        "start_year": "2004.0",
        "last_researched": "2022/04/05"
      }
    },
    {
      "type": "Feature",
      "geometry": {
        "type": "Point",
        "coordinates": [
          10.5425,
          49.3713
        ]
      },
      "properties": {
        "name": "Birkenfels wind farm",
        "capacity": "10.0",
        "installation_type": "Onshore",
        "status": "Operating",
        "start_year": "2015.0",
        "last_researched": "2022/04/05"
      }
    },
    {
      "type": "Feature",
      "geometry": {
        "type": "Point",
        "coordinates": [
          11.4954,
          51.8008
        ]
      },
      "properties": {
        "name": "Blaue Warthe II wind farm",
        "capacity": "21.0",
        "installation_type": "Onshore",
        "status": "Operating",
        "start_year": "2013.0",
        "last_researched": "2022/04/05"
      }
    },
    {
      "type": "Feature",
      "geometry": {
        "type": "Point",
        "coordinates": [
          9.9443,
          49.3023
        ]
      },
      "properties": {
        "name": "Blaufelden wind farm",
        "capacity": "12.0",
        "installation_type": "Onshore",
        "status": "Operating",
        "start_year": "nan",
        "last_researched": "2022/04/05"
      }
    },
    {
      "type": "Feature",
      "geometry": {
        "type": "Point",
        "coordinates": [
          9.1208,
          52.9058
        ]
      },
      "properties": {
        "name": "Blender-Hustedt wind farm",
        "capacity": "14.0",
        "installation_type": "Onshore",
        "status": "Operating",
        "start_year": "2012.0",
        "last_researched": "2022/04/05"
      }
    },
    {
      "type": "Feature",
      "geometry": {
        "type": "Point",
        "coordinates": [
          14.18,
          52.7
        ]
      },
      "properties": {
        "name": "Bliesdorf wind farm",
        "capacity": "34.0",
        "installation_type": "Onshore",
        "status": "Operating",
        "start_year": "2001.0",
        "last_researched": "2022/04/05"
      }
    },
    {
      "type": "Feature",
      "geometry": {
        "type": "Point",
        "coordinates": [
          13.6672,
          52.5944
        ]
      },
      "properties": {
        "name": "Blumberg wind farm",
        "capacity": "14.0",
        "installation_type": "Onshore",
        "status": "Operating",
        "start_year": "2022.0",
        "last_researched": "2024/03/18"
      }
    },
    {
      "type": "Feature",
      "geometry": {
        "type": "Point",
        "coordinates": [
          11.1284,
          48.4116
        ]
      },
      "properties": {
        "name": "Blumenthal wind farm",
        "capacity": "14.0",
        "installation_type": "Onshore",
        "status": "Operating",
        "start_year": "2016.0",
        "last_researched": "2022/04/05"
      }
    },
    {
      "type": "Feature",
      "geometry": {
        "type": "Point",
        "coordinates": [
          9.1781,
          54.6865
        ]
      },
      "properties": {
        "name": "Blye wind farm",
        "capacity": "26.0",
        "installation_type": "Onshore",
        "status": "Operating",
        "start_year": "2015.0",
        "last_researched": "2022/04/05"
      }
    },
    {
      "type": "Feature",
      "geometry": {
        "type": "Point",
        "coordinates": [
          12.4367,
          51.4039
        ]
      },
      "properties": {
        "name": "Bmw Leipzig wind farm",
        "capacity": "10.0",
        "installation_type": "Onshore",
        "status": "Operating",
        "start_year": "2013.0",
        "last_researched": "2022/04/05"
      }
    },
    {
      "type": "Feature",
      "geometry": {
        "type": "Point",
        "coordinates": [
          13.4138,
          50.9176
        ]
      },
      "properties": {
        "name": "Bobritzsch-Schmohlh\u00f6he wind farm",
        "capacity": "10.0",
        "installation_type": "Onshore",
        "status": "Operating",
        "start_year": "2012.0",
        "last_researched": "2022/04/05"
      }
    },
    {
      "type": "Feature",
      "geometry": {
        "type": "Point",
        "coordinates": [
          9.6946,
          49.4689
        ]
      },
      "properties": {
        "name": "Bobstadt wind farm",
        "capacity": "12.0",
        "installation_type": "Onshore",
        "status": "Operating",
        "start_year": "2018.0",
        "last_researched": "2022/04/05"
      }
    },
    {
      "type": "Feature",
      "geometry": {
        "type": "Point",
        "coordinates": [
          12.93,
          51.22
        ]
      },
      "properties": {
        "name": "Bockelwitz wind farm",
        "capacity": "15.0",
        "installation_type": "Onshore",
        "status": "Operating",
        "start_year": "1999.0",
        "last_researched": "2022/04/05"
      }
    },
    {
      "type": "Feature",
      "geometry": {
        "type": "Point",
        "coordinates": [
          8.0284,
          53.4284
        ]
      },
      "properties": {
        "name": "Bockhorn wind farm",
        "capacity": "12.0",
        "installation_type": "Onshore",
        "status": "Operating",
        "start_year": "2012.0",
        "last_researched": "2023/04/07"
      }
    },
    {
      "type": "Feature",
      "geometry": {
        "type": "Point",
        "coordinates": [
          8.0209,
          53.4315
        ]
      },
      "properties": {
        "name": "Bockhorn wind farm",
        "capacity": "12.0",
        "installation_type": "Onshore",
        "status": "Operating",
        "start_year": "2014.0",
        "last_researched": "2023/04/07"
      }
    },
    {
      "type": "Feature",
      "geometry": {
        "type": "Point",
        "coordinates": [
          9.0683,
          54.583
        ]
      },
      "properties": {
        "name": "Bohmstedt wind farm",
        "capacity": "21.0",
        "installation_type": "Onshore",
        "status": "Operating",
        "start_year": "2014.0",
        "last_researched": "2022/04/05"
      }
    },
    {
      "type": "Feature",
      "geometry": {
        "type": "Point",
        "coordinates": [
          8.34,
          52.3972
        ]
      },
      "properties": {
        "name": "Bohmte wind farm",
        "capacity": "12.0",
        "installation_type": "Onshore",
        "status": "Operating",
        "start_year": "2005.0",
        "last_researched": "2022/04/05"
      }
    },
    {
      "type": "Feature",
      "geometry": {
        "type": "Point",
        "coordinates": [
          10.8352,
          52.6214
        ]
      },
      "properties": {
        "name": "Boitzenhagen wind farm",
        "capacity": "25.0",
        "installation_type": "Onshore",
        "status": "Operating",
        "start_year": "2021.0",
        "last_researched": "2023/03/28"
      }
    },
    {
      "type": "Feature",
      "geometry": {
        "type": "Point",
        "coordinates": [
          9.7601,
          54.2298
        ]
      },
      "properties": {
        "name": "Bokel wind farm",
        "capacity": "18.0",
        "installation_type": "Onshore",
        "status": "Operating",
        "start_year": "2022.0",
        "last_researched": "2024/03/18"
      }
    },
    {
      "type": "Feature",
      "geometry": {
        "type": "Point",
        "coordinates": [
          9.8107,
          54.2065
        ]
      },
      "properties": {
        "name": "Bokel-Ellerdorf wind farm",
        "capacity": "19.0",
        "installation_type": "Onshore",
        "status": "Operating",
        "start_year": "2013.0",
        "last_researched": "2022/04/05"
      }
    },
    {
      "type": "Feature",
      "geometry": {
        "type": "Point",
        "coordinates": [
          9.8437,
          54.3531
        ]
      },
      "properties": {
        "name": "B\u00f6kingharder wind farm",
        "capacity": "20.0",
        "installation_type": "Onshore",
        "status": "Operating",
        "start_year": "2015.0",
        "last_researched": "2022/04/05"
      }
    },
    {
      "type": "Feature",
      "geometry": {
        "type": "Point",
        "coordinates": [
          10.7486,
          51.5208
        ]
      },
      "properties": {
        "name": "Boldecker Land wind farm",
        "capacity": "16.0",
        "installation_type": "Onshore",
        "status": "Operating",
        "start_year": "2003.0",
        "last_researched": "2022/04/05"
      }
    },
    {
      "type": "Feature",
      "geometry": {
        "type": "Point",
        "coordinates": [
          8.2777,
          53.339
        ]
      },
      "properties": {
        "name": "Bollenhagen wind farm",
        "capacity": "24.0",
        "installation_type": "Onshore",
        "status": "Operating",
        "start_year": "2017.0",
        "last_researched": "2022/04/05"
      }
    },
    {
      "type": "Feature",
      "geometry": {
        "type": "Point",
        "coordinates": [
          9.3538,
          54.1129
        ]
      },
      "properties": {
        "name": "Bondenschiften wind farm",
        "capacity": "15.0",
        "installation_type": "Onshore",
        "status": "Operating",
        "start_year": "2023.0",
        "last_researched": "2024/02/29"
      }
    },
    {
      "type": "Feature",
      "geometry": {
        "type": "Point",
        "coordinates": [
          8.7754,
          51.6467
        ]
      },
      "properties": {
        "name": "Borchen wind farm",
        "capacity": "16.0",
        "installation_type": "Onshore",
        "status": "Operating",
        "start_year": "2022.0",
        "last_researched": "2024/03/18"
      }
    },
    {
      "type": "Feature",
      "geometry": {
        "type": "Point",
        "coordinates": [
          8.8015,
          51.6288
        ]
      },
      "properties": {
        "name": "Borchen-Etteln wind farm",
        "capacity": "15.0",
        "installation_type": "Onshore",
        "status": "Operating",
        "start_year": "2018.0",
        "last_researched": "2022/04/05"
      }
    },
    {
      "type": "Feature",
      "geometry": {
        "type": "Point",
        "coordinates": [
          8.8733,
          54.6505
        ]
      },
      "properties": {
        "name": "Bordelum wind farm",
        "capacity": "16.0",
        "installation_type": "Onshore",
        "status": "Operating",
        "start_year": "2009.0",
        "last_researched": "2023/04/05"
      }
    },
    {
      "type": "Feature",
      "geometry": {
        "type": "Point",
        "coordinates": [
          9.0172,
          54.6455
        ]
      },
      "properties": {
        "name": "Bordelum wind farm",
        "capacity": "42.0",
        "installation_type": "Onshore",
        "status": "Operating",
        "start_year": "2014.0",
        "last_researched": "2022/04/05"
      }
    },
    {
      "type": "Feature",
      "geometry": {
        "type": "Point",
        "coordinates": [
          7.5798,
          52.9274
        ]
      },
      "properties": {
        "name": "B\u00f6rger-Ohe wind farm",
        "capacity": "12.0",
        "installation_type": "Onshore",
        "status": "Operating",
        "start_year": "2016.0",
        "last_researched": "2022/04/05"
      }
    },
    {
      "type": "Feature",
      "geometry": {
        "type": "Point",
        "coordinates": [
          7.5686,
          52.9255
        ]
      },
      "properties": {
        "name": "B\u00f6rger-Ohe wind farm",
        "capacity": "22.0",
        "installation_type": "Onshore",
        "status": "Operating",
        "start_year": "2017.0",
        "last_researched": "2022/04/05"
      }
    },
    {
      "type": "Feature",
      "geometry": {
        "type": "Point",
        "coordinates": [
          6.4912,
          53.9741
        ]
      },
      "properties": {
        "name": "Borkum Riffgrund 1 wind farm",
        "capacity": "312.0",
        "installation_type": "Offshore hard mount",
        "status": "Operating",
        "start_year": "2015.0",
        "last_researched": "2022/04/05"
      }
    },
    {
      "type": "Feature",
      "geometry": {
        "type": "Point",
        "coordinates": [
          6.5493,
          53.9665
        ]
      },
      "properties": {
        "name": "Borkum Riffgrund 2 wind farm",
        "capacity": "450.0",
        "installation_type": "Offshore hard mount",
        "status": "Operating",
        "start_year": "2019.0",
        "last_researched": "2023/03/27"
      }
    },
    {
      "type": "Feature",
      "geometry": {
        "type": "Point",
        "coordinates": [
          11.6061,
          51.9621
        ]
      },
      "properties": {
        "name": "Borne (MDP) wind farm",
        "capacity": "33.0",
        "installation_type": "Onshore",
        "status": "Operating",
        "start_year": "2012.0",
        "last_researched": "2022/04/05"
      }
    },
    {
      "type": "Feature",
      "geometry": {
        "type": "Point",
        "coordinates": [
          11.6061,
          51.9621
        ]
      },
      "properties": {
        "name": "Borne (WPD) wind farm",
        "capacity": "12.0",
        "installation_type": "Onshore",
        "status": "Operating",
        "start_year": "2012.0",
        "last_researched": "2022/04/05"
      }
    },
    {
      "type": "Feature",
      "geometry": {
        "type": "Point",
        "coordinates": [
          10.1376,
          51.9088
        ]
      },
      "properties": {
        "name": "Bornhausen wind farm",
        "capacity": "25.0",
        "installation_type": "Onshore",
        "status": "Operating",
        "start_year": "2023.0",
        "last_researched": "2024/03/05"
      }
    },
    {
      "type": "Feature",
      "geometry": {
        "type": "Point",
        "coordinates": [
          11.4718,
          51.4585
        ]
      },
      "properties": {
        "name": "Bornstedt-Holdenstedt wind farm",
        "capacity": "12.0",
        "installation_type": "Onshore",
        "status": "Operating",
        "start_year": "2010.0",
        "last_researched": "2023/03/28"
      }
    },
    {
      "type": "Feature",
      "geometry": {
        "type": "Point",
        "coordinates": [
          11.3697,
          52.1922
        ]
      },
      "properties": {
        "name": "Bornstedt-Rottmersleben wind farm",
        "capacity": "37.0",
        "installation_type": "Onshore",
        "status": "Operating",
        "start_year": "2004.0",
        "last_researched": "2022/04/05"
      }
    },
    {
      "type": "Feature",
      "geometry": {
        "type": "Point",
        "coordinates": [
          11.375,
          52.1989
        ]
      },
      "properties": {
        "name": "Bornstedt-Rottmersleben wind farm",
        "capacity": "40.0",
        "installation_type": "Onshore",
        "status": "Operating",
        "start_year": "nan",
        "last_researched": "2022/04/05"
      }
    },
    {
      "type": "Feature",
      "geometry": {
        "type": "Point",
        "coordinates": [
          8.2501,
          52.499
        ]
      },
      "properties": {
        "name": "Borringhauser Moor wind farm",
        "capacity": "20.0",
        "installation_type": "Onshore",
        "status": "Operating",
        "start_year": "2017.0",
        "last_researched": "2022/04/05"
      }
    },
    {
      "type": "Feature",
      "geometry": {
        "type": "Point",
        "coordinates": [
          7.253,
          53.3531
        ]
      },
      "properties": {
        "name": "Borssum wind farm",
        "capacity": "12.0",
        "installation_type": "Onshore",
        "status": "Operating",
        "start_year": "2005.0",
        "last_researched": "2022/04/05"
      }
    },
    {
      "type": "Feature",
      "geometry": {
        "type": "Point",
        "coordinates": [
          8.6324,
          52.7542
        ]
      },
      "properties": {
        "name": "Borwede wind farm",
        "capacity": "21.0",
        "installation_type": "Onshore",
        "status": "Operating",
        "start_year": "2017.0",
        "last_researched": "2023/03/13"
      }
    },
    {
      "type": "Feature",
      "geometry": {
        "type": "Point",
        "coordinates": [
          7.9276,
          53.0282
        ]
      },
      "properties": {
        "name": "B\u00f6sel wind farm",
        "capacity": "15.0",
        "installation_type": "Onshore",
        "status": "Operating",
        "start_year": "2014.0",
        "last_researched": "2022/04/05"
      }
    },
    {
      "type": "Feature",
      "geometry": {
        "type": "Point",
        "coordinates": [
          7.9273,
          53.0284
        ]
      },
      "properties": {
        "name": "B\u00f6sel-K\u00fcndelmoor wind farm",
        "capacity": "31.0",
        "installation_type": "Onshore",
        "status": "Operating",
        "start_year": "2014.0",
        "last_researched": "2022/04/05"
      }
    },
    {
      "type": "Feature",
      "geometry": {
        "type": "Point",
        "coordinates": [
          10.6402,
          53.1477
        ]
      },
      "properties": {
        "name": "Bostelwiebeck wind farm",
        "capacity": "24.0",
        "installation_type": "Onshore",
        "status": "Operating",
        "start_year": "2024.0",
        "last_researched": "2025/01/07"
      }
    },
    {
      "type": "Feature",
      "geometry": {
        "type": "Point",
        "coordinates": [
          9.5722,
          49.5117
        ]
      },
      "properties": {
        "name": "Boxberg wind farm",
        "capacity": "10.0",
        "installation_type": "Onshore",
        "status": "Operating",
        "start_year": "2004.0",
        "last_researched": "2022/04/05"
      }
    },
    {
      "type": "Feature",
      "geometry": {
        "type": "Point",
        "coordinates": [
          9.2491,
          50.3105
        ]
      },
      "properties": {
        "name": "Brachttal-Spielberg wind farm",
        "capacity": "10.0",
        "installation_type": "Onshore",
        "status": "Operating",
        "start_year": "2017.0",
        "last_researched": "2022/04/05"
      }
    },
    {
      "type": "Feature",
      "geometry": {
        "type": "Point",
        "coordinates": [
          8.8723,
          54.8208
        ]
      },
      "properties": {
        "name": "Braderup wind farm",
        "capacity": "24.0",
        "installation_type": "Onshore",
        "status": "Operating",
        "start_year": "2007.0",
        "last_researched": "2022/04/05"
      }
    },
    {
      "type": "Feature",
      "geometry": {
        "type": "Point",
        "coordinates": [
          8.8819,
          54.8236
        ]
      },
      "properties": {
        "name": "Braderup-Kilxbull wind farm",
        "capacity": "18.0",
        "installation_type": "Onshore",
        "status": "Operating",
        "start_year": "2006.0",
        "last_researched": "2022/04/05"
      }
    },
    {
      "type": "Feature",
      "geometry": {
        "type": "Point",
        "coordinates": [
          8.9105,
          54.8469
        ]
      },
      "properties": {
        "name": "Braderup-Tinningstedt wind farm",
        "capacity": "20.0",
        "installation_type": "Onshore",
        "status": "Operating",
        "start_year": "2013.0",
        "last_researched": "2022/04/05"
      }
    },
    {
      "type": "Feature",
      "geometry": {
        "type": "Point",
        "coordinates": [
          9.1071,
          54.8535
        ]
      },
      "properties": {
        "name": "Bramstedtlund wind farm",
        "capacity": "30.0",
        "installation_type": "Onshore",
        "status": "Operating",
        "start_year": "2021.0",
        "last_researched": "2022/04/05"
      }
    },
    {
      "type": "Feature",
      "geometry": {
        "type": "Point",
        "coordinates": [
          9.3699,
          50.6926
        ]
      },
      "properties": {
        "name": "Brauerschwend-Lauterbach wind farm",
        "capacity": "21.0",
        "installation_type": "Onshore",
        "status": "Operating",
        "start_year": "2023.0",
        "last_researched": "2024/03/25"
      }
    },
    {
      "type": "Feature",
      "geometry": {
        "type": "Point",
        "coordinates": [
          9.8145,
          49.2374
        ]
      },
      "properties": {
        "name": "Braunsbach wind farm",
        "capacity": "12.0",
        "installation_type": "Onshore",
        "status": "Operating",
        "start_year": "2016.0",
        "last_researched": "2022/04/05"
      }
    },
    {
      "type": "Feature",
      "geometry": {
        "type": "Point",
        "coordinates": [
          8.9566,
          54.8937
        ]
      },
      "properties": {
        "name": "Brebek wind farm",
        "capacity": "15.0",
        "installation_type": "Onshore",
        "status": "Operating",
        "start_year": "2015.0",
        "last_researched": "2022/04/05"
      }
    },
    {
      "type": "Feature",
      "geometry": {
        "type": "Point",
        "coordinates": [
          8.9566,
          54.8937
        ]
      },
      "properties": {
        "name": "Brebek wind farm",
        "capacity": "21.0",
        "installation_type": "Onshore",
        "status": "Operating",
        "start_year": "2017.0",
        "last_researched": "2022/04/05"
      }
    },
    {
      "type": "Feature",
      "geometry": {
        "type": "Point",
        "coordinates": [
          5.9971,
          50.9928
        ]
      },
      "properties": {
        "name": "Breberen wind farm",
        "capacity": "18.0",
        "installation_type": "Onshore",
        "status": "Operating",
        "start_year": "2005.0",
        "last_researched": "2022/04/05"
      }
    },
    {
      "type": "Feature",
      "geometry": {
        "type": "Point",
        "coordinates": [
          7.25,
          52.2606
        ]
      },
      "properties": {
        "name": "Brechte wind farm",
        "capacity": "15.0",
        "installation_type": "Onshore",
        "status": "Operating",
        "start_year": "2016.0",
        "last_researched": "2022/04/05"
      }
    },
    {
      "type": "Feature",
      "geometry": {
        "type": "Point",
        "coordinates": [
          7.25,
          52.2606
        ]
      },
      "properties": {
        "name": "Brechte wind farm",
        "capacity": "15.0",
        "installation_type": "Onshore",
        "status": "Operating",
        "start_year": "2016.0",
        "last_researched": "2022/04/05"
      }
    },
    {
      "type": "Feature",
      "geometry": {
        "type": "Point",
        "coordinates": [
          7.5599,
          51.3299
        ]
      },
      "properties": {
        "name": "Brechtefeld wind farm",
        "capacity": "17.0",
        "installation_type": "Onshore",
        "status": "Operating",
        "start_year": "2024.0",
        "last_researched": "2025/01/07"
      }
    },
    {
      "type": "Feature",
      "geometry": {
        "type": "Point",
        "coordinates": [
          9.1508,
          51.7997
        ]
      },
      "properties": {
        "name": "Bredenborn Holzhausen wind farm",
        "capacity": "13.0",
        "installation_type": "Onshore",
        "status": "Operating",
        "start_year": "2016.0",
        "last_researched": "2023/04/05"
      }
    },
    {
      "type": "Feature",
      "geometry": {
        "type": "Point",
        "coordinates": [
          9.1604,
          51.7961
        ]
      },
      "properties": {
        "name": "Bredenborn wind farm",
        "capacity": "16.0",
        "installation_type": "Onshore",
        "status": "Operating",
        "start_year": "2003.0",
        "last_researched": "2022/04/05"
      }
    },
    {
      "type": "Feature",
      "geometry": {
        "type": "Point",
        "coordinates": [
          12.2128,
          53.8678
        ]
      },
      "properties": {
        "name": "Bredentin wind farm",
        "capacity": "15.0",
        "installation_type": "Onshore",
        "status": "Operating",
        "start_year": "2013.0",
        "last_researched": "2022/04/05"
      }
    },
    {
      "type": "Feature",
      "geometry": {
        "type": "Point",
        "coordinates": [
          12.9371,
          52.5751
        ]
      },
      "properties": {
        "name": "Bredow Zeestow wind farm",
        "capacity": "14.0",
        "installation_type": "Onshore",
        "status": "Operating",
        "start_year": "2005.0",
        "last_researched": "2022/04/05"
      }
    },
    {
      "type": "Feature",
      "geometry": {
        "type": "Point",
        "coordinates": [
          12.9295,
          52.5685
        ]
      },
      "properties": {
        "name": "Bredow Zeestow wind farm",
        "capacity": "14.0",
        "installation_type": "Onshore",
        "status": "Operating",
        "start_year": "2008.0",
        "last_researched": "2022/04/05"
      }
    },
    {
      "type": "Feature",
      "geometry": {
        "type": "Point",
        "coordinates": [
          8.9782,
          54.5782
        ]
      },